{
  "lineas": [
    { "id": "A", "nombre": "Línea A (Niquía - La Estrella)", "color": "#00843D", "tipo": "metro" },
    { "id": "B", "nombre": "Línea B (San Antonio - San Javier)", "color": "#FDB913", "tipo": "metro" },
    { "id": "K", "nombre": "Línea K (Metrocable Acevedo - Santo Domingo)", "color": "#00BCB4", "tipo": "cable" },
    { "id": "J", "nombre": "Línea J (Metrocable San Javier - La Aurora)", "color": "#F7941D", "tipo": "cable" },
    { "id": "H", "nombre": "Línea H (Metrocable Oriente)", "color": "#8B5CF6", "tipo": "cable" },
    { "id": "L", "nombre": "Línea L (Cable Arví)", "color": "#4ADE80", "tipo": "cable" },
    { "id": "TA", "nombre": "Tranvía Ayacucho", "color": "#DC2626", "tipo": "tranvia" },
    { "id": "1", "nombre": "Metroplús Línea 1", "color": "#1D4ED8", "tipo": "brt" },
    { "id": "2", "nombre": "Metroplús Línea 2", "color": "#7C3AED", "tipo": "brt" }
  ],
  "estaciones": [
    { "nombre": "Niquía", "linea": "A", "lat": 6.3374, "lng": -75.5440, "comuna": null },
    { "nombre": "Bello", "linea": "A", "lat": 6.3340, "lng": -75.5560, "comuna": null },
    { "nombre": "Madera", "linea": "A", "lat": 6.3204, "lng": -75.5538, "comuna": null },
    { "nombre": "Acevedo", "linea": "A", "lat": 6.2995, "lng": -75.5566, "comuna": 2 },
    { "nombre": "Tricentenario", "linea": "A", "lat": 6.2897, "lng": -75.5601, "comuna": 5 },
    { "nombre": "Caribe", "linea": "A", "lat": 6.2808, "lng": -75.5663, "comuna": 5 },
    { "nombre": "Universidad", "linea": "A", "lat": 6.2700, "lng": -75.5646, "comuna": 4 },
    { "nombre": "Hospital", "linea": "A", "lat": 6.2624, "lng": -75.5666, "comuna": 10 },
    { "nombre": "Prado", "linea": "A", "lat": 6.2587, "lng": -75.5668, "comuna": 10 },
    { "nombre": "Parque Berrío", "linea": "A", "lat": 6.2520, "lng": -75.5686, "comuna": 10 },
    { "nombre": "San Antonio", "linea": "A", "lat": 6.2477, "lng": -75.5696, "comuna": 10 },
    { "nombre": "Alpujarra", "linea": "A", "lat": 6.2440, "lng": -75.5735, "comuna": 10 },
    { "nombre": "Exposiciones", "linea": "A", "lat": 6.2390, "lng": -75.5738, "comuna": 15 },
    { "nombre": "Industriales", "linea": "A", "lat": 6.2320, "lng": -75.5770, "comuna": 14 },
    { "nombre": "Poblado", "linea": "A", "lat": 6.2110, "lng": -75.5770, "comuna": 14 },
    { "nombre": "Aguacatala", "linea": "A", "lat": 6.1980, "lng": -75.5790, "comuna": 14 },
    { "nombre": "Ayurá", "linea": "A", "lat": 6.1890, "lng": -75.5790, "comuna": null },
    { "nombre": "Envigado", "linea": "A", "lat": 6.1740, "lng": -75.5810, "comuna": null },
    { "nombre": "Itagüí", "linea": "A", "lat": 6.1650, "lng": -75.5900, "comuna": null },
    { "nombre": "Sabaneta", "linea": "A", "lat": 6.1510, "lng": -75.5960, "comuna": null },
    { "nombre": "La Estrella", "linea": "A", "lat": 6.1440, "lng": -75.6000, "comuna": null },
    { "nombre": "San Javier", "linea": "B", "lat": 6.2568, "lng": -75.6103, "comuna": 13 },
    { "nombre": "Santa Lucía", "linea": "B", "lat": 6.2540, "lng": -75.6020, "comuna": 12 },
    { "nombre": "Floresta", "linea": "B", "lat": 6.2530, "lng": -75.5970, "comuna": 12 },
    { "nombre": "Estadio", "linea": "B", "lat": 6.2510, "lng": -75.5906, "comuna": 11 },
    { "nombre": "Suramericana", "linea": "B", "lat": 6.2500, "lng": -75.5826, "comuna": 11 },
    { "nombre": "Cisneros", "linea": "B", "lat": 6.2490, "lng": -75.5750, "comuna": 10 },
    { "nombre": "Andalucía", "linea": "K", "lat": 6.2950, "lng": -75.5510, "comuna": 2 },
    { "nombre": "Popular", "linea": "K", "lat": 6.2860, "lng": -75.5450, "comuna": 1 },
    { "nombre": "Santo Domingo", "linea": "K", "lat": 6.2900, "lng": -75.5370, "comuna": 1 },
    { "nombre": "Juan XXIII", "linea": "J", "lat": 6.2650, "lng": -75.6140, "comuna": 13 },
    { "nombre": "Vallejuelos", "linea": "J", "lat": 6.2720, "lng": -75.6180, "comuna": 13 },
    { "nombre": "La Aurora", "linea": "J", "lat": 6.2800, "lng": -75.6190, "comuna": 13 },
    { "nombre": "Oriente", "linea": "H", "lat": 6.2580, "lng": -75.5390, "comuna": 8 },
    { "nombre": "Las Torres", "linea": "H", "lat": 6.2610, "lng": -75.5320, "comuna": 8 },
    { "nombre": "Miraflores", "linea": "TA", "lat": 6.2450, "lng": -75.5590, "comuna": 9 },
    { "nombre": "Buenos Aires", "linea": "TA", "lat": 6.2440, "lng": -75.5530, "comuna": 9 },
    { "nombre": "San José", "linea": "TA", "lat": 6.2460, "lng": -75.5650, "comuna": 10 },
    { "nombre": "Bicentenario", "linea": "TA", "lat": 6.2465, "lng": -75.5670, "comuna": 10 }
  ]
}
